{"postalCodes":[{"adminCode2":"617","adminName3":"Panruti","adminCode1":"25","adminName2":"Cuddalore","lng":80.133158,"countryCode":"IN","postalCode":"607802","adminName1":"Tamil Nadu","ISO3166-2":"TN","placeName":"Neyveli 2","lat":12.603678},{"adminCode2":"617","adminName3":"Virudhachalam","adminCode1":"25","adminName2":"Cuddalore","lng":80.133158,"countryCode":"IN","postalCode":"607802","adminName1":"Tamil Nadu","ISO3166-2":"TN","placeName":"Neyveli Second Mines","lat":12.603678},{"adminCode2":"617","adminName3":"Panruti","adminCode1":"25","adminName2":"Cuddalore","lng":80.133158,"countryCode":"IN","postalCode":"607802","adminName1":"Tamil Nadu","ISO3166-2":"TN","placeName":"Melakuppam","lat":12.603678},{"adminCode2":"617","adminName3":"Virudhachalam","adminCode1":"25","adminName2":"Cuddalore","lng":80.133158,"countryCode":"IN","postalCode":"607802","adminName1":"Tamil Nadu","ISO3166-2":"TN","placeName":"A.Kuravankuppam","lat":12.603678},{"adminCode2":"617","adminName3":"Panruti","adminCode1":"25","adminName2":"Cuddalore","lng":80.133158,"countryCode":"IN","postalCode":"607802","adminName1":"Tamil Nadu","ISO3166-2":"TN","placeName":"Melakolakudi","lat":12.603678},{"adminCode2":"617","adminName3":"Panruti","adminCode1":"25","adminName2":"Cuddalore","lng":80.133158,"countryCode":"IN","postalCode":"607802","adminName1":"Tamil Nadu","ISO3166-2":"TN","placeName":"Ammeri","lat":12.603678},{"adminCode2":"617","adminName3":"Panruti","adminCode1":"25","adminName2":"Cuddalore","lng":80.133158,"countryCode":"IN","postalCode":"607802","adminName1":"Tamil Nadu","ISO3166-2":"TN","placeName":"Seplanatham","lat":12.603678},{"adminCode2":"617","adminName3":"Panruti","adminCode1":"25","adminName2":"Cuddalore","lng":80.133158,"countryCode":"IN","postalCode":"607802","adminName1":"Tamil Nadu","ISO3166-2":"TN","placeName":"Vadakkuvelur","lat":12.603678},{"adminCode2":"617","adminName3":"Panruti","adminCode1":"25","adminName2":"Cuddalore","lng":80.133158,"countryCode":"IN","postalCode":"607802","adminName1":"Tamil Nadu","ISO3166-2":"TN","placeName":"Periyakappankulam","lat":12.603678},{"adminCode2":"617","adminName3":"Panruti","adminCode1":"25","adminName2":"Cuddalore","lng":80.133158,"countryCode":"IN","postalCode":"607802","adminName1":"Tamil Nadu","ISO3166-2":"TN","placeName":"Mettukkuppam","lat":12.603678},{"adminCode2":"617","adminName3":"Panruti","adminCode1":"25","adminName2":"Cuddalore","lng":80.133158,"countryCode":"IN","postalCode":"607802","adminName1":"Tamil Nadu","ISO3166-2":"TN","placeName":"Kottagam","lat":12.603678},{"adminName2":"ЛУКОЯНОВСКИЙ РАЙОН","lng":44.20555556666667,"countryCode":"RU","postalCode":"607802","adminName1":"Нижегородская Область","placeName":"Лукоянов 2","lat":54.2822222}]}